{"type":"FeatureCollection","features":[{"type":"Feature","properties":{"":1,"name":"watauga high school","type":"water"},"geometry":{"type":"Point","coordinates":[-81.65081,36.21686]}},{"type":"Feature","properties":{"":2,"name":"the summit pickleball","type":"food"},"geometry":{"type":"Point","coordinates":[-81.64552,36.22206]}},{"type":"Feature","properties":{"":3,"name":"cornerstone church","type":"food"},"geometry":{"type":"Point","coordinates":[-81.65745,36.21924]}},{"type":"Feature","properties":{"":4,"name":"boone united ","type":"food"},"geometry":{"type":"Point","coordinates":[-81.66454,36.22381]}},{"type":"Feature","properties":{"":5,"name":"mt.vernon baptist church","type":"food"},"geometry":{"type":"Point","coordinates":[-81.60814,36.19977]}},{"type":"Feature","properties":{"":6,"name":"holmes convocation ceneter ","type":"fema"},"geometry":{"type":"Point","coordinates":[-81.67535,36.21145]}},{"type":"Feature","properties":{"":7,"name":"plemmons student union","type":"water"},"geometry":{"type":"Point","coordinates":[-81.67814,36.21478]}},{"type":"Feature","properties":{"":8,"name":"leon levine hall","type":"fema"},"geometry":{"type":"Point","coordinates":[-81.6516,36.20133]}},{"type":"Feature","properties":{"":9,"name":"walmart","type":"fema"},"geometry":{"type":"Point","coordinates":[-81.65651,36.19775]}}]}